[
  {
    "locationId": "aldi-parchal",
    "storeId": "aldi",
    "name": "ALDI Parchal",
    "address": "Rua Infante de Sagres 6",
    "postalCode": "8400-623",
    "locality": "Parchal",
    "municipality": "Lagoa",
    "lat": 37.138151837906,
    "lng": -8.5175974375461,
    "active": true,
    "notes": "Loja piloto ALDI no Algarve com morada confirmada pelo comunicado oficial de abertura do Parchal; coordenadas aproximadas a partir de referência pública para a mesma morada."
  },
  {
    "locationId": "auchan-lagoa",
    "storeId": "auchan",
    "name": "Auchan Lagoa",
    "address": "EN 125, Quinta da Bem Posta",
    "postalCode": "8400-701",
    "locality": "Lagoa",
    "municipality": "Lagoa",
    "lat": 37.1367,
    "lng": -8.4648,
    "active": true,
    "notes": "Loja piloto Auchan no Algarve com morada oficial e coordenadas publicas extraidas do link de direcoes da pagina oficial da loja."
  },
  {
    "locationId": "lidl-armacao-de-pera",
    "storeId": "lidl",
    "name": "Lidl Armação de Pêra",
    "address": "Avenida General Humberto Delgado 2",
    "postalCode": "8365-138",
    "locality": "Armação de Pêra",
    "municipality": "Silves",
    "lat": 37.10399,
    "lng": -8.36293,
    "active": true,
    "notes": "Loja piloto confirmada pelo payload público oficial do Lidl para a pesquisa de loja em Silves."
  },
  {
    "locationId": "pingo-doce-armacao-de-pera",
    "storeId": "pingo-doce",
    "name": "Pingo Doce Armação de Pêra",
    "address": "Urbanização Vila Nova II, Lugar Da Torre C1",
    "postalCode": "8365-184",
    "locality": "Armação de Pêra",
    "municipality": "Silves",
    "lat": 37.106772611822535,
    "lng": -8.359752053451286,
    "active": true,
    "notes": "Loja piloto confirmada pelo utilizador através de morada e coordenadas."
  },
  {
    "locationId": "continente-bom-dia-armacao-de-pera",
    "storeId": "continente",
    "name": "Continente Bom Dia Armação de Pêra",
    "address": "Avenida General Humberto Delgado",
    "postalCode": "8365-138",
    "locality": "Armação de Pêra",
    "municipality": "Silves",
    "lat": 37.1066761,
    "lng": -8.3624628,
    "active": true,
    "notes": "Loja piloto confirmada pelo utilizador. Coordenadas extraidas do link Google Maps fornecido pelo utilizador."
  }
]
